$GPGGA,083554.524,5951.610,N,01738.349,E,1,12,1.0,0.0,M,0.0,M,,*6E
$GPGSA,A,3,01,02,03,04,05,06,07,08,09,10,11,12,1.0,1.0,1.0*30
$GPRMC,083554.524,A,5951.610,N,01738.349,E,019.4,063.7,300420,000.0,W*71
$GPGGA,083555.524,5951.614,N,01738.357,E,1,12,1.0,0.0,M,0.0,M,,*64
$GPGSA,A,3,01,02,03,04,05,06,07,08,09,10,11,12,1.0,1.0,1.0*30
$GPRMC,083555.524,A,5951.614,N,01738.357,E,019.4,063.7,300420,000.0,W*7B
$GPGGA,083556.524,5951.618,N,01738.364,E,1,12,1.0,0.0,M,0.0,M,,*6B
$GPGSA,A,3,01,02,03,04,05,06,07,08,09,10,11,12,1.0,1.0,1.0*30
$GPRMC,083556.524,A,5951.618,N,01738.364,E,019.4,063.7,300420,000.0,W*74
$GPGGA,083557.524,5951.622,N,01738.372,E,1,12,1.0,0.0,M,0.0,M,,*64
$GPGSA,A,3,01,02,03,04,05,06,07,08,09,10,11,12,1.0,1.0,1.0*30
$GPRMC,083557.524,A,5951.622,N,01738.372,E,019.4,063.7,300420,000.0,W*7B
$GPGGA,083558.524,5951.625,N,01738.380,E,1,12,1.0,0.0,M,0.0,M,,*61
$GPGSA,A,3,01,02,03,04,05,06,07,08,09,10,11,12,1.0,1.0,1.0*30
$GPRMC,083558.524,A,5951.625,N,01738.380,E,019.4,063.7,300420,000.0,W*7E
$GPGGA,083559.524,5951.629,N,01738.387,E,1,12,1.0,0.0,M,0.0,M,,*6B
$GPGSA,A,3,01,02,03,04,05,06,07,08,09,10,11,12,1.0,1.0,1.0*30
$GPRMC,083559.524,A,5951.629,N,01738.387,E,019.4,063.7,300420,000.0,W*74
$GPGGA,083600.524,5951.633,N,01738.395,E,1,12,1.0,0.0,M,0.0,M,,*6C
$GPGSA,A,3,01,02,03,04,05,06,07,08,09,10,11,12,1.0,1.0,1.0*30
$GPRMC,083600.524,A,5951.633,N,01738.395,E,019.4,063.7,300420,000.0,W*73
$GPGGA,083601.524,5951.637,N,01738.403,E,1,12,1.0,0.0,M,0.0,M,,*61
$GPGSA,A,3,01,02,03,04,05,06,07,08,09,10,11,12,1.0,1.0,1.0*30
$GPRMC,083601.524,A,5951.637,N,01738.403,E,019.4,299.4,300420,000.0,W*7A
$GPGGA,083602.524,5951.641,N,01738.396,E,1,12,1.0,0.0,M,0.0,M,,*68
$GPGSA,A,3,01,02,03,04,05,06,07,08,09,10,11,12,1.0,1.0,1.0*30
$GPRMC,083602.524,A,5951.641,N,01738.396,E,019.4,299.4,300420,000.0,W*73
$GPGGA,083603.524,5951.645,N,01738.389,E,1,12,1.0,0.0,M,0.0,M,,*63
$GPGSA,A,3,01,02,03,04,05,06,07,08,09,10,11,12,1.0,1.0,1.0*30
$GPRMC,083603.524,A,5951.645,N,01738.389,E,019.4,299.4,300420,000.0,W*78
$GPGGA,083604.524,5951.649,N,01738.381,E,1,12,1.0,0.0,M,0.0,M,,*60
$GPGSA,A,3,01,02,03,04,05,06,07,08,09,10,11,12,1.0,1.0,1.0*30
$GPRMC,083604.524,A,5951.649,N,01738.381,E,019.4,299.4,300420,000.0,W*7B
$GPGGA,083605.524,5951.653,N,01738.374,E,1,12,1.0,0.0,M,0.0,M,,*60
$GPGSA,A,3,01,02,03,04,05,06,07,08,09,10,11,12,1.0,1.0,1.0*30
$GPRMC,083605.524,A,5951.653,N,01738.374,E,019.4,299.4,300420,000.0,W*7B
$GPGGA,083606.524,5951.657,N,01738.367,E,1,12,1.0,0.0,M,0.0,M,,*65
$GPGSA,A,3,01,02,03,04,05,06,07,08,09,10,11,12,1.0,1.0,1.0*30
$GPRMC,083606.524,A,5951.657,N,01738.367,E,019.4,299.4,300420,000.0,W*7E
$GPGGA,083607.524,5951.661,N,01738.360,E,1,12,1.0,0.0,M,0.0,M,,*66
$GPGSA,A,3,01,02,03,04,05,06,07,08,09,10,11,12,1.0,1.0,1.0*30
$GPRMC,083607.524,A,5951.661,N,01738.360,E,019.4,299.4,300420,000.0,W*7D
$GPGGA,083608.524,5951.665,N,01738.353,E,1,12,1.0,0.0,M,0.0,M,,*6D
$GPGSA,A,3,01,02,03,04,05,06,07,08,09,10,11,12,1.0,1.0,1.0*30
$GPRMC,083608.524,A,5951.665,N,01738.353,E,019.4,299.4,300420,000.0,W*76
$GPGGA,083609.524,5951.669,N,01738.345,E,1,12,1.0,0.0,M,0.0,M,,*67
$GPGSA,A,3,01,02,03,04,05,06,07,08,09,10,11,12,1.0,1.0,1.0*30
$GPRMC,083609.524,A,5951.669,N,01738.345,E,019.4,299.4,300420,000.0,W*7C
$GPGGA,083610.524,5951.673,N,01738.338,E,1,12,1.0,0.0,M,0.0,M,,*6E
$GPGSA,A,3,01,02,03,04,05,06,07,08,09,10,11,12,1.0,1.0,1.0*30
$GPRMC,083610.524,A,5951.673,N,01738.338,E,019.4,299.4,300420,000.0,W*75
$GPGGA,083611.524,5951.677,N,01738.331,E,1,12,1.0,0.0,M,0.0,M,,*62
$GPGSA,A,3,01,02,03,04,05,06,07,08,09,10,11,12,1.0,1.0,1.0*30
$GPRMC,083611.524,A,5951.677,N,01738.331,E,019.4,299.4,300420,000.0,W*79
$GPGGA,083612.524,5951.681,N,01738.324,E,1,12,1.0,0.0,M,0.0,M,,*6C
$GPGSA,A,3,01,02,03,04,05,06,07,08,09,10,11,12,1.0,1.0,1.0*30
$GPRMC,083612.524,A,5951.681,N,01738.324,E,019.4,299.4,300420,000.0,W*77
$GPGGA,083613.524,5951.685,N,01738.317,E,1,12,1.0,0.0,M,0.0,M,,*69
$GPGSA,A,3,01,02,03,04,05,06,07,08,09,10,11,12,1.0,1.0,1.0*30
$GPRMC,083613.524,A,5951.685,N,01738.317,E,019.4,299.4,300420,000.0,W*72
$GPGGA,083614.524,5951.689,N,01738.310,E,1,12,1.0,0.0,M,0.0,M,,*65
$GPGSA,A,3,01,02,03,04,05,06,07,08,09,10,11,12,1.0,1.0,1.0*30
$GPRMC,083614.524,A,5951.689,N,01738.310,E,019.4,299.4,300420,000.0,W*7E
$GPGGA,083615.524,5951.693,N,01738.302,E,1,12,1.0,0.0,M,0.0,M,,*6C
$GPGSA,A,3,01,02,03,04,05,06,07,08,09,10,11,12,1.0,1.0,1.0*30
$GPRMC,083615.524,A,5951.693,N,01738.302,E,019.4,299.4,300420,000.0,W*77
$GPGGA,083616.524,5951.697,N,01738.295,E,1,12,1.0,0.0,M,0.0,M,,*64
$GPGSA,A,3,01,02,03,04,05,06,07,08,09,10,11,12,1.0,1.0,1.0*30
$GPRMC,083616.524,A,5951.697,N,01738.295,E,019.4,299.4,300420,000.0,W*7F
$GPGGA,083617.524,5951.701,N,01738.288,E,1,12,1.0,0.0,M,0.0,M,,*67
$GPGSA,A,3,01,02,03,04,05,06,07,08,09,10,11,12,1.0,1.0,1.0*30
$GPRMC,083617.524,A,5951.701,N,01738.288,E,019.4,299.4,300420,000.0,W*7C
$GPGGA,083618.524,5951.705,N,01738.281,E,1,12,1.0,0.0,M,0.0,M,,*65
$GPGSA,A,3,01,02,03,04,05,06,07,08,09,10,11,12,1.0,1.0,1.0*30
$GPRMC,083618.524,A,5951.705,N,01738.281,E,019.4,299.4,300420,000.0,W*7E
$GPGGA,083619.524,5951.709,N,01738.274,E,1,12,1.0,0.0,M,0.0,M,,*62
$GPGSA,A,3,01,02,03,04,05,06,07,08,09,10,11,12,1.0,1.0,1.0*30
$GPRMC,083619.524,A,5951.709,N,01738.274,E,019.4,299.4,300420,000.0,W*79
$GPGGA,083620.524,5951.713,N,01738.267,E,1,12,1.0,0.0,M,0.0,M,,*61
$GPGSA,A,3,01,02,03,04,05,06,07,08,09,10,11,12,1.0,1.0,1.0*30
$GPRMC,083620.524,A,5951.713,N,01738.267,E,019.4,299.4,300420,000.0,W*7A
$GPGGA,083621.524,5951.717,N,01738.259,E,1,12,1.0,0.0,M,0.0,M,,*69
$GPGSA,A,3,01,02,03,04,05,06,07,08,09,10,11,12,1.0,1.0,1.0*30
$GPRMC,083621.524,A,5951.717,N,01738.259,E,019.4,299.4,300420,000.0,W*72
$GPGGA,083622.524,5951.721,N,01738.252,E,1,12,1.0,0.0,M,0.0,M,,*64
$GPGSA,A,3,01,02,03,04,05,06,07,08,09,10,11,12,1.0,1.0,1.0*30
$GPRMC,083622.524,A,5951.721,N,01738.252,E,019.4,299.4,300420,000.0,W*7F
$GPGGA,083623.524,5951.725,N,01738.245,E,1,12,1.0,0.0,M,0.0,M,,*67
$GPGSA,A,3,01,02,03,04,05,06,07,08,09,10,11,12,1.0,1.0,1.0*30
$GPRMC,083623.524,A,5951.725,N,01738.245,E,019.4,299.4,300420,000.0,W*7C
$GPGGA,083624.524,5951.729,N,01738.238,E,1,12,1.0,0.0,M,0.0,M,,*66
$GPGSA,A,3,01,02,03,04,05,06,07,08,09,10,11,12,1.0,1.0,1.0*30
$GPRMC,083624.524,A,5951.729,N,01738.238,E,019.4,299.4,300420,000.0,W*7D
$GPGGA,083625.524,5951.733,N,01738.231,E,1,12,1.0,0.0,M,0.0,M,,*65
$GPGSA,A,3,01,02,03,04,05,06,07,08,09,10,11,12,1.0,1.0,1.0*30
$GPRMC,083625.524,A,5951.733,N,01738.231,E,019.4,299.4,300420,000.0,W*7E
$GPGGA,083626.524,5951.737,N,01738.224,E,1,12,1.0,0.0,M,0.0,M,,*66
$GPGSA,A,3,01,02,03,04,05,06,07,08,09,10,11,12,1.0,1.0,1.0*30
$GPRMC,083626.524,A,5951.737,N,01738.224,E,019.4,299.4,300420,000.0,W*7D
$GPGGA,083627.524,5951.741,N,01738.216,E,1,12,1.0,0.0,M,0.0,M,,*67
$GPGSA,A,3,01,02,03,04,05,06,07,08,09,10,11,12,1.0,1.0,1.0*30
$GPRMC,083627.524,A,5951.741,N,01738.216,E,019.4,299.4,300420,000.0,W*7C
$GPGGA,083628.524,5951.745,N,01738.209,E,1,12,1.0,0.0,M,0.0,M,,*62
$GPGSA,A,3,01,02,03,04,05,06,07,08,09,10,11,12,1.0,1.0,1.0*30
$GPRMC,083628.524,A,5951.745,N,01738.209,E,019.4,299.4,300420,000.0,W*79
$GPGGA,083629.524,5951.749,N,01738.202,E,1,12,1.0,0.0,M,0.0,M,,*64
$GPGSA,A,3,01,02,03,04,05,06,07,08,09,10,11,12,1.0,1.0,1.0*30
$GPRMC,083629.524,A,5951.749,N,01738.202,E,019.4,299.4,300420,000.0,W*7F
$GPGGA,083630.524,5951.753,N,01738.195,E,1,12,1.0,0.0,M,0.0,M,,*6A
$GPGSA,A,3,01,02,03,04,05,06,07,08,09,10,11,12,1.0,1.0,1.0*30
$GPRMC,083630.524,A,5951.753,N,01738.195,E,019.4,299.4,300420,000.0,W*71
$GPGGA,083631.524,5951.757,N,01738.188,E,1,12,1.0,0.0,M,0.0,M,,*63
$GPGSA,A,3,01,02,03,04,05,06,07,08,09,10,11,12,1.0,1.0,1.0*30
$GPRMC,083631.524,A,5951.757,N,01738.188,E,019.4,299.4,300420,000.0,W*78
$GPGGA,083632.524,5951.761,N,01738.181,E,1,12,1.0,0.0,M,0.0,M,,*6C
$GPGSA,A,3,01,02,03,04,05,06,07,08,09,10,11,12,1.0,1.0,1.0*30
$GPRMC,083632.524,A,5951.761,N,01738.181,E,019.4,299.4,300420,000.0,W*77
$GPGGA,083633.524,5951.765,N,01738.173,E,1,12,1.0,0.0,M,0.0,M,,*64
$GPGSA,A,3,01,02,03,04,05,06,07,08,09,10,11,12,1.0,1.0,1.0*30
$GPRMC,083633.524,A,5951.765,N,01738.173,E,019.4,299.4,300420,000.0,W*7F
$GPGGA,083634.524,5951.769,N,01738.166,E,1,12,1.0,0.0,M,0.0,M,,*6B
$GPGSA,A,3,01,02,03,04,05,06,07,08,09,10,11,12,1.0,1.0,1.0*30
$GPRMC,083634.524,A,5951.769,N,01738.166,E,019.4,299.4,300420,000.0,W*70
$GPGGA,083635.524,5951.773,N,01738.159,E,1,12,1.0,0.0,M,0.0,M,,*6D
$GPGSA,A,3,01,02,03,04,05,06,07,08,09,10,11,12,1.0,1.0,1.0*30
$GPRMC,083635.524,A,5951.773,N,01738.159,E,019.4,299.4,300420,000.0,W*76
$GPGGA,083636.524,5951.777,N,01738.152,E,1,12,1.0,0.0,M,0.0,M,,*61
$GPGSA,A,3,01,02,03,04,05,06,07,08,09,10,11,12,1.0,1.0,1.0*30
$GPRMC,083636.524,A,5951.777,N,01738.152,E,019.4,299.4,300420,000.0,W*7A
$GPGGA,083637.524,5951.781,N,01738.145,E,1,12,1.0,0.0,M,0.0,M,,*6F
$GPGSA,A,3,01,02,03,04,05,06,07,08,09,10,11,12,1.0,1.0,1.0*30
$GPRMC,083637.524,A,5951.781,N,01738.145,E,019.4,299.4,300420,000.0,W*74
$GPGGA,083638.524,5951.785,N,01738.137,E,1,12,1.0,0.0,M,0.0,M,,*61
$GPGSA,A,3,01,02,03,04,05,06,07,08,09,10,11,12,1.0,1.0,1.0*30
$GPRMC,083638.524,A,5951.785,N,01738.137,E,019.4,299.4,300420,000.0,W*7A
$GPGGA,083639.524,5951.789,N,01738.130,E,1,12,1.0,0.0,M,0.0,M,,*6B
$GPGSA,A,3,01,02,03,04,05,06,07,08,09,10,11,12,1.0,1.0,1.0*30
$GPRMC,083639.524,A,5951.789,N,01738.130,E,019.4,299.4,300420,000.0,W*70
$GPGGA,083640.524,5951.793,N,01738.123,E,1,12,1.0,0.0,M,0.0,M,,*6C
$GPGSA,A,3,01,02,03,04,05,06,07,08,09,10,11,12,1.0,1.0,1.0*30
$GPRMC,083640.524,A,5951.793,N,01738.123,E,019.4,299.4,300420,000.0,W*77
$GPGGA,083641.524,5951.797,N,01738.116,E,1,12,1.0,0.0,M,0.0,M,,*6F
$GPGSA,A,3,01,02,03,04,05,06,07,08,09,10,11,12,1.0,1.0,1.0*30
$GPRMC,083641.524,A,5951.797,N,01738.116,E,019.4,299.4,300420,000.0,W*74
$GPGGA,083642.524,5951.802,N,01738.109,E,1,12,1.0,0.0,M,0.0,M,,*61
$GPGSA,A,3,01,02,03,04,05,06,07,08,09,10,11,12,1.0,1.0,1.0*30
$GPRMC,083642.524,A,5951.802,N,01738.109,E,019.4,299.4,300420,000.0,W*7A
$GPGGA,083643.524,5951.806,N,01738.102,E,1,12,1.0,0.0,M,0.0,M,,*6F
$GPGSA,A,3,01,02,03,04,05,06,07,08,09,10,11,12,1.0,1.0,1.0*30
$GPRMC,083643.524,A,5951.806,N,01738.102,E,019.4,299.4,300420,000.0,W*74
$GPGGA,083644.524,5951.810,N,01738.094,E,1,12,1.0,0.0,M,0.0,M,,*61
$GPGSA,A,3,01,02,03,04,05,06,07,08,09,10,11,12,1.0,1.0,1.0*30
$GPRMC,083644.524,A,5951.810,N,01738.094,E,019.4,299.4,300420,000.0,W*7A
$GPGGA,083645.524,5951.814,N,01738.087,E,1,12,1.0,0.0,M,0.0,M,,*66
$GPGSA,A,3,01,02,03,04,05,06,07,08,09,10,11,12,1.0,1.0,1.0*30
$GPRMC,083645.524,A,5951.814,N,01738.087,E,019.4,299.4,300420,000.0,W*7D
$GPGGA,083646.524,5951.818,N,01738.080,E,1,12,1.0,0.0,M,0.0,M,,*6E
$GPGSA,A,3,01,02,03,04,05,06,07,08,09,10,11,12,1.0,1.0,1.0*30
$GPRMC,083646.524,A,5951.818,N,01738.080,E,019.4,299.4,300420,000.0,W*75
$GPGGA,083647.524,5951.822,N,01738.073,E,1,12,1.0,0.0,M,0.0,M,,*6A
$GPGSA,A,3,01,02,03,04,05,06,07,08,09,10,11,12,1.0,1.0,1.0*30
$GPRMC,083647.524,A,5951.822,N,01738.073,E,019.4,299.4,300420,000.0,W*71
$GPGGA,083648.524,5951.826,N,01738.066,E,1,12,1.0,0.0,M,0.0,M,,*65
$GPGSA,A,3,01,02,03,04,05,06,07,08,09,10,11,12,1.0,1.0,1.0*30
$GPRMC,083648.524,A,5951.826,N,01738.066,E,019.4,299.4,300420,000.0,W*7E
$GPGGA,083649.524,5951.830,N,01738.059,E,1,12,1.0,0.0,M,0.0,M,,*6F
$GPGSA,A,3,01,02,03,04,05,06,07,08,09,10,11,12,1.0,1.0,1.0*30
$GPRMC,083649.524,A,5951.830,N,01738.059,E,019.4,299.4,300420,000.0,W*74
$GPGGA,083650.524,5951.834,N,01738.051,E,1,12,1.0,0.0,M,0.0,M,,*6B
$GPGSA,A,3,01,02,03,04,05,06,07,08,09,10,11,12,1.0,1.0,1.0*30
$GPRMC,083650.524,A,5951.834,N,01738.051,E,019.4,299.4,300420,000.0,W*70
$GPGGA,083651.524,5951.838,N,01738.044,E,1,12,1.0,0.0,M,0.0,M,,*62
$GPGSA,A,3,01,02,03,04,05,06,07,08,09,10,11,12,1.0,1.0,1.0*30
$GPRMC,083651.524,A,5951.838,N,01738.044,E,019.4,299.4,300420,000.0,W*79
$GPGGA,083652.524,5951.842,N,01738.037,E,1,12,1.0,0.0,M,0.0,M,,*68
$GPGSA,A,3,01,02,03,04,05,06,07,08,09,10,11,12,1.0,1.0,1.0*30
$GPRMC,083652.524,A,5951.842,N,01738.037,E,019.4,299.4,300420,000.0,W*73
$GPGGA,083653.524,5951.846,N,01738.030,E,1,12,1.0,0.0,M,0.0,M,,*6A
$GPGSA,A,3,01,02,03,04,05,06,07,08,09,10,11,12,1.0,1.0,1.0*30
$GPRMC,083653.524,A,5951.846,N,01738.030,E,019.4,299.4,300420,000.0,W*71
$GPGGA,083654.524,5951.850,N,01738.023,E,1,12,1.0,0.0,M,0.0,M,,*68
$GPGSA,A,3,01,02,03,04,05,06,07,08,09,10,11,12,1.0,1.0,1.0*30
$GPRMC,083654.524,A,5951.850,N,01738.023,E,019.4,299.4,300420,000.0,W*73
$GPGGA,083655.524,5951.854,N,01738.016,E,1,12,1.0,0.0,M,0.0,M,,*6B
$GPGSA,A,3,01,02,03,04,05,06,07,08,09,10,11,12,1.0,1.0,1.0*30
$GPRMC,083655.524,A,5951.854,N,01738.016,E,019.4,299.4,300420,000.0,W*70
$GPGGA,083656.524,5951.858,N,01738.008,E,1,12,1.0,0.0,M,0.0,M,,*6B
$GPGSA,A,3,01,02,03,04,05,06,07,08,09,10,11,12,1.0,1.0,1.0*30
$GPRMC,083656.524,A,5951.858,N,01738.008,E,019.4,299.4,300420,000.0,W*70
$GPGGA,083657.524,5951.862,N,01738.001,E,1,12,1.0,0.0,M,0.0,M,,*6A
$GPGSA,A,3,01,02,03,04,05,06,07,08,09,10,11,12,1.0,1.0,1.0*30
$GPRMC,083657.524,A,5951.862,N,01738.001,E,019.4,299.4,300420,000.0,W*71
$GPGGA,083658.524,5951.866,N,01737.994,E,1,12,1.0,0.0,M,0.0,M,,*6B
$GPGSA,A,3,01,02,03,04,05,06,07,08,09,10,11,12,1.0,1.0,1.0*30
$GPRMC,083658.524,A,5951.866,N,01737.994,E,019.4,299.4,300420,000.0,W*70
$GPGGA,083659.524,5951.870,N,01737.987,E,1,12,1.0,0.0,M,0.0,M,,*6F
$GPGSA,A,3,01,02,03,04,05,06,07,08,09,10,11,12,1.0,1.0,1.0*30
$GPRMC,083659.524,A,5951.870,N,01737.987,E,019.4,299.4,300420,000.0,W*74
$GPGGA,083700.524,5951.874,N,01737.980,E,1,12,1.0,0.0,M,0.0,M,,*61
$GPGSA,A,3,01,02,03,04,05,06,07,08,09,10,11,12,1.0,1.0,1.0*30
$GPRMC,083700.524,A,5951.874,N,01737.980,E,019.4,310.1,300420,000.0,W*7F
$GPGGA,083701.524,5951.878,N,01737.974,E,1,12,1.0,0.0,M,0.0,M,,*67
$GPGSA,A,3,01,02,03,04,05,06,07,08,09,10,11,12,1.0,1.0,1.0*30
$GPRMC,083701.524,A,5951.878,N,01737.974,E,019.4,001.0,300420,000.0,W*7B
$GPGGA,083702.524,5951.884,N,01737.974,E,1,12,1.0,0.0,M,0.0,M,,*67
$GPGSA,A,3,01,02,03,04,05,06,07,08,09,10,11,12,1.0,1.0,1.0*30
$GPRMC,083702.524,A,5951.884,N,01737.974,E,019.4,001.0,300420,000.0,W*7B
$GPGGA,083703.524,5951.889,N,01737.974,E,1,12,1.0,0.0,M,0.0,M,,*6B
$GPGSA,A,3,01,02,03,04,05,06,07,08,09,10,11,12,1.0,1.0,1.0*30
$GPRMC,083703.524,A,5951.889,N,01737.974,E,019.4,055.9,300420,000.0,W*7F
$GPGGA,083704.524,5951.894,N,01737.981,E,1,12,1.0,0.0,M,0.0,M,,*6A
$GPGSA,A,3,01,02,03,04,05,06,07,08,09,10,11,12,1.0,1.0,1.0*30
$GPRMC,083704.524,A,5951.894,N,01737.981,E,019.4,052.8,300420,000.0,W*78
$GPGGA,083705.524,5951.898,N,01737.987,E,1,12,1.0,0.0,M,0.0,M,,*61
$GPGSA,A,3,01,02,03,04,05,06,07,08,09,10,11,12,1.0,1.0,1.0*30
$GPRMC,083705.524,A,5951.898,N,01737.987,E,019.4,347.6,300420,000.0,W*7A
$GPGGA,083706.524,5951.903,N,01737.986,E,1,12,1.0,0.0,M,0.0,M,,*60
$GPGSA,A,3,01,02,03,04,05,06,07,08,09,10,11,12,1.0,1.0,1.0*30
$GPRMC,083706.524,A,5951.903,N,01737.986,E,019.4,300.7,300420,000.0,W*79
$GPGGA,083707.524,5951.908,N,01737.979,E,1,12,1.0,0.0,M,0.0,M,,*6A
$GPGSA,A,3,01,02,03,04,05,06,07,08,09,10,11,12,1.0,1.0,1.0*30
$GPRMC,083707.524,A,5951.908,N,01737.979,E,019.4,283.2,300420,000.0,W*7C
$GPGGA,083708.524,5951.910,N,01737.969,E,1,12,1.0,0.0,M,0.0,M,,*6D
$GPGSA,A,3,01,02,03,04,05,06,07,08,09,10,11,12,1.0,1.0,1.0*30
$GPRMC,083708.524,A,5951.910,N,01737.969,E,019.4,265.2,300420,000.0,W*73
$GPGGA,083709.524,5951.909,N,01737.958,E,1,12,1.0,0.0,M,0.0,M,,*66
$GPGSA,A,3,01,02,03,04,05,06,07,08,09,10,11,12,1.0,1.0,1.0*30
$GPRMC,083709.524,A,5951.909,N,01737.958,E,019.4,258.7,300420,000.0,W*73
$GPGGA,083710.524,5951.907,N,01737.948,E,1,12,1.0,0.0,M,0.0,M,,*61
$GPGSA,A,3,01,02,03,04,05,06,07,08,09,10,11,12,1.0,1.0,1.0*30
$GPRMC,083710.524,A,5951.907,N,01737.948,E,019.4,267.1,300420,000.0,W*7E
$GPGGA,083711.524,5951.906,N,01737.938,E,1,12,1.0,0.0,M,0.0,M,,*66
$GPGSA,A,3,01,02,03,04,05,06,07,08,09,10,11,12,1.0,1.0,1.0*30
$GPRMC,083711.524,A,5951.906,N,01737.938,E,019.4,267.1,300420,000.0,W*79
$GPGGA,083712.524,5951.906,N,01737.927,E,1,12,1.0,0.0,M,0.0,M,,*6B
$GPGSA,A,3,01,02,03,04,05,06,07,08,09,10,11,12,1.0,1.0,1.0*30
$GPRMC,083712.524,A,5951.906,N,01737.927,E,019.4,267.1,300420,000.0,W*74
$GPGGA,083713.524,5951.905,N,01737.916,E,1,12,1.0,0.0,M,0.0,M,,*6B
$GPGSA,A,3,01,02,03,04,05,06,07,08,09,10,11,12,1.0,1.0,1.0*30
$GPRMC,083713.524,A,5951.905,N,01737.916,E,019.4,267.1,300420,000.0,W*74
$GPGGA,083714.524,5951.905,N,01737.905,E,1,12,1.0,0.0,M,0.0,M,,*6E
$GPGSA,A,3,01,02,03,04,05,06,07,08,09,10,11,12,1.0,1.0,1.0*30
$GPRMC,083714.524,A,5951.905,N,01737.905,E,019.4,267.1,300420,000.0,W*71
$GPGGA,083715.524,5951.904,N,01737.895,E,1,12,1.0,0.0,M,0.0,M,,*66
$GPGSA,A,3,01,02,03,04,05,06,07,08,09,10,11,12,1.0,1.0,1.0*30
$GPRMC,083715.524,A,5951.904,N,01737.895,E,019.4,267.1,300420,000.0,W*79
$GPGGA,083716.524,5951.904,N,01737.884,E,1,12,1.0,0.0,M,0.0,M,,*65
$GPGSA,A,3,01,02,03,04,05,06,07,08,09,10,11,12,1.0,1.0,1.0*30
$GPRMC,083716.524,A,5951.904,N,01737.884,E,019.4,267.1,300420,000.0,W*7A
$GPGGA,083717.524,5951.903,N,01737.873,E,1,12,1.0,0.0,M,0.0,M,,*6B
$GPGSA,A,3,01,02,03,04,05,06,07,08,09,10,11,12,1.0,1.0,1.0*30
$GPRMC,083717.524,A,5951.903,N,01737.873,E,019.4,267.1,300420,000.0,W*74
$GPGGA,083718.524,5951.903,N,01737.863,E,1,12,1.0,0.0,M,0.0,M,,*65
$GPGSA,A,3,01,02,03,04,05,06,07,08,09,10,11,12,1.0,1.0,1.0*30
$GPRMC,083718.524,A,5951.903,N,01737.863,E,019.4,276.3,300420,000.0,W*78
$GPGGA,083719.524,5951.904,N,01737.852,E,1,12,1.0,0.0,M,0.0,M,,*61
$GPGSA,A,3,01,02,03,04,05,06,07,08,09,10,11,12,1.0,1.0,1.0*30
$GPRMC,083719.524,A,5951.904,N,01737.852,E,019.4,276.8,300420,000.0,W*77
$GPGGA,083720.524,5951.905,N,01737.842,E,1,12,1.0,0.0,M,0.0,M,,*6B
$GPGSA,A,3,01,02,03,04,05,06,07,08,09,10,11,12,1.0,1.0,1.0*30
$GPRMC,083720.524,A,5951.905,N,01737.842,E,019.4,286.6,300420,000.0,W*7C
$GPGGA,083721.524,5951.908,N,01737.832,E,1,12,1.0,0.0,M,0.0,M,,*60
$GPGSA,A,3,01,02,03,04,05,06,07,08,09,10,11,12,1.0,1.0,1.0*30
$GPRMC,083721.524,A,5951.908,N,01737.832,E,019.4,295.5,300420,000.0,W*76
$GPGGA,083722.524,5951.911,N,01737.825,E,1,12,1.0,0.0,M,0.0,M,,*6D
$GPGSA,A,3,01,02,03,04,05,06,07,08,09,10,11,12,1.0,1.0,1.0*30
$GPRMC,083722.524,A,5951.911,N,01737.825,E,019.4,333.2,300420,000.0,W*71
$GPGGA,083723.524,5951.917,N,01737.822,E,1,12,1.0,0.0,M,0.0,M,,*6D
$GPGSA,A,3,01,02,03,04,05,06,07,08,09,10,11,12,1.0,1.0,1.0*30
$GPRMC,083723.524,A,5951.917,N,01737.822,E,019.4,333.2,300420,000.0,W*71
$GPGGA,083724.524,5951.922,N,01737.819,E,1,12,1.0,0.0,M,0.0,M,,*64
$GPGSA,A,3,01,02,03,04,05,06,07,08,09,10,11,12,1.0,1.0,1.0*30
$GPRMC,083724.524,A,5951.922,N,01737.819,E,019.4,333.0,300420,000.0,W*7A
$GPGGA,083725.524,5951.927,N,01737.817,E,1,12,1.0,0.0,M,0.0,M,,*6E
$GPGSA,A,3,01,02,03,04,05,06,07,08,09,10,11,12,1.0,1.0,1.0*30
$GPRMC,083725.524,A,5951.927,N,01737.817,E,019.4,333.0,300420,000.0,W*70
$GPGGA,083726.524,5951.932,N,01737.814,E,1,12,1.0,0.0,M,0.0,M,,*6A
$GPGSA,A,3,01,02,03,04,05,06,07,08,09,10,11,12,1.0,1.0,1.0*30
$GPRMC,083726.524,A,5951.932,N,01737.814,E,019.4,333.0,300420,000.0,W*74
$GPGGA,083727.524,5951.938,N,01737.811,E,1,12,1.0,0.0,M,0.0,M,,*64
$GPGSA,A,3,01,02,03,04,05,06,07,08,09,10,11,12,1.0,1.0,1.0*30
$GPRMC,083727.524,A,5951.938,N,01737.811,E,019.4,333.0,300420,000.0,W*7A
$GPGGA,083728.524,5951.943,N,01737.809,E,1,12,1.0,0.0,M,0.0,M,,*6E
$GPGSA,A,3,01,02,03,04,05,06,07,08,09,10,11,12,1.0,1.0,1.0*30
$GPRMC,083728.524,A,5951.943,N,01737.809,E,019.4,333.0,300420,000.0,W*70
$GPGGA,083729.524,5951.948,N,01737.806,E,1,12,1.0,0.0,M,0.0,M,,*6B
$GPGSA,A,3,01,02,03,04,05,06,07,08,09,10,11,12,1.0,1.0,1.0*30
$GPRMC,083729.524,A,5951.948,N,01737.806,E,019.4,333.0,300420,000.0,W*75
$GPGGA,083730.524,5951.953,N,01737.803,E,1,12,1.0,0.0,M,0.0,M,,*6C
$GPGSA,A,3,01,02,03,04,05,06,07,08,09,10,11,12,1.0,1.0,1.0*30
$GPRMC,083730.524,A,5951.953,N,01737.803,E,019.4,333.0,300420,000.0,W*72
$GPGGA,083731.524,5951.958,N,01737.801,E,1,12,1.0,0.0,M,0.0,M,,*64
$GPGSA,A,3,01,02,03,04,05,06,07,08,09,10,11,12,1.0,1.0,1.0*30
$GPRMC,083731.524,A,5951.958,N,01737.801,E,019.4,333.0,300420,000.0,W*7A
$GPGGA,083732.524,5951.964,N,01737.798,E,1,12,1.0,0.0,M,0.0,M,,*67
$GPGSA,A,3,01,02,03,04,05,06,07,08,09,10,11,12,1.0,1.0,1.0*30
$GPRMC,083732.524,A,5951.964,N,01737.798,E,019.4,333.0,300420,000.0,W*79
$GPGGA,083733.524,5951.969,N,01737.795,E,1,12,1.0,0.0,M,0.0,M,,*66
$GPGSA,A,3,01,02,03,04,05,06,07,08,09,10,11,12,1.0,1.0,1.0*30
$GPRMC,083733.524,A,5951.969,N,01737.795,E,019.4,333.0,300420,000.0,W*78
$GPGGA,083734.524,5951.974,N,01737.793,E,1,12,1.0,0.0,M,0.0,M,,*6B
$GPGSA,A,3,01,02,03,04,05,06,07,08,09,10,11,12,1.0,1.0,1.0*30
$GPRMC,083734.524,A,5951.974,N,01737.793,E,019.4,333.0,300420,000.0,W*75
$GPGGA,083735.524,5951.979,N,01737.790,E,1,12,1.0,0.0,M,0.0,M,,*64
$GPGSA,A,3,01,02,03,04,05,06,07,08,09,10,11,12,1.0,1.0,1.0*30
$GPRMC,083735.524,A,5951.979,N,01737.790,E,019.4,333.0,300420,000.0,W*7A
$GPGGA,083736.524,5951.985,N,01737.787,E,1,12,1.0,0.0,M,0.0,M,,*62
$GPGSA,A,3,01,02,03,04,05,06,07,08,09,10,11,12,1.0,1.0,1.0*30
$GPRMC,083736.524,A,5951.985,N,01737.787,E,019.4,333.0,300420,000.0,W*7C
$GPGGA,083737.524,5951.990,N,01737.785,E,1,12,1.0,0.0,M,0.0,M,,*65
$GPGSA,A,3,01,02,03,04,05,06,07,08,09,10,11,12,1.0,1.0,1.0*30
$GPRMC,083737.524,A,5951.990,N,01737.785,E,019.4,333.0,300420,000.0,W*7B
$GPGGA,083738.524,5951.995,N,01737.782,E,1,12,1.0,0.0,M,0.0,M,,*68
$GPGSA,A,3,01,02,03,04,05,06,07,08,09,10,11,12,1.0,1.0,1.0*30
$GPRMC,083738.524,A,5951.995,N,01737.782,E,019.4,333.0,300420,000.0,W*76
$GPGGA,083739.524,5952.000,N,01737.779,E,1,12,1.0,0.0,M,0.0,M,,*6B
$GPGSA,A,3,01,02,03,04,05,06,07,08,09,10,11,12,1.0,1.0,1.0*30
$GPRMC,083739.524,A,5952.000,N,01737.779,E,019.4,333.0,300420,000.0,W*75
$GPGGA,083740.524,5952.005,N,01737.776,E,1,12,1.0,0.0,M,0.0,M,,*6F
$GPGSA,A,3,01,02,03,04,05,06,07,08,09,10,11,12,1.0,1.0,1.0*30
$GPRMC,083740.524,A,5952.005,N,01737.776,E,019.4,333.0,300420,000.0,W*71
$GPGGA,083741.524,5952.011,N,01737.774,E,1,12,1.0,0.0,M,0.0,M,,*69
$GPGSA,A,3,01,02,03,04,05,06,07,08,09,10,11,12,1.0,1.0,1.0*30
$GPRMC,083741.524,A,5952.011,N,01737.774,E,019.4,333.0,300420,000.0,W*77
$GPGGA,083742.524,5952.016,N,01737.771,E,1,12,1.0,0.0,M,0.0,M,,*68
$GPGSA,A,3,01,02,03,04,05,06,07,08,09,10,11,12,1.0,1.0,1.0*30
$GPRMC,083742.524,A,5952.016,N,01737.771,E,019.4,333.0,300420,000.0,W*76
$GPGGA,083743.524,5952.021,N,01737.768,E,1,12,1.0,0.0,M,0.0,M,,*65
$GPGSA,A,3,01,02,03,04,05,06,07,08,09,10,11,12,1.0,1.0,1.0*30
$GPRMC,083743.524,A,5952.021,N,01737.768,E,019.4,333.0,300420,000.0,W*7B
$GPGGA,083744.524,5952.026,N,01737.766,E,1,12,1.0,0.0,M,0.0,M,,*6B
$GPGSA,A,3,01,02,03,04,05,06,07,08,09,10,11,12,1.0,1.0,1.0*30
$GPRMC,083744.524,A,5952.026,N,01737.766,E,019.4,333.0,300420,000.0,W*75
$GPGGA,083745.524,5952.032,N,01737.763,E,1,12,1.0,0.0,M,0.0,M,,*6A
$GPGSA,A,3,01,02,03,04,05,06,07,08,09,10,11,12,1.0,1.0,1.0*30
$GPRMC,083745.524,A,5952.032,N,01737.763,E,019.4,333.0,300420,000.0,W*74
$GPGGA,083746.524,5952.037,N,01737.760,E,1,12,1.0,0.0,M,0.0,M,,*6F
$GPGSA,A,3,01,02,03,04,05,06,07,08,09,10,11,12,1.0,1.0,1.0*30
$GPRMC,083746.524,A,5952.037,N,01737.760,E,019.4,333.0,300420,000.0,W*71
$GPGGA,083747.524,5952.042,N,01737.758,E,1,12,1.0,0.0,M,0.0,M,,*67
$GPGSA,A,3,01,02,03,04,05,06,07,08,09,10,11,12,1.0,1.0,1.0*30
$GPRMC,083747.524,A,5952.042,N,01737.758,E,019.4,330.4,300420,000.0,W*7E
$GPGGA,083748.524,5952.047,N,01737.755,E,1,12,1.0,0.0,M,0.0,M,,*60
$GPGSA,A,3,01,02,03,04,05,06,07,08,09,10,11,12,1.0,1.0,1.0*30
$GPRMC,083748.524,A,5952.047,N,01737.755,E,019.4,330.4,300420,000.0,W*79
$GPGGA,083749.524,5952.052,N,01737.752,E,1,12,1.0,0.0,M,0.0,M,,*62
$GPGSA,A,3,01,02,03,04,05,06,07,08,09,10,11,12,1.0,1.0,1.0*30
$GPRMC,083749.524,A,5952.052,N,01737.752,E,019.4,330.4,300420,000.0,W*7B
$GPGGA,083750.524,5952.058,N,01737.749,E,1,12,1.0,0.0,M,0.0,M,,*6A
$GPGSA,A,3,01,02,03,04,05,06,07,08,09,10,11,12,1.0,1.0,1.0*30
$GPRMC,083750.524,A,5952.058,N,01737.749,E,019.4,330.4,300420,000.0,W*73
$GPGGA,083751.524,5952.063,N,01737.746,E,1,12,1.0,0.0,M,0.0,M,,*6C
$GPGSA,A,3,01,02,03,04,05,06,07,08,09,10,11,12,1.0,1.0,1.0*30
$GPRMC,083751.524,A,5952.063,N,01737.746,E,019.4,330.4,300420,000.0,W*75
$GPGGA,083752.524,5952.068,N,01737.743,E,1,12,1.0,0.0,M,0.0,M,,*61
$GPGSA,A,3,01,02,03,04,05,06,07,08,09,10,11,12,1.0,1.0,1.0*30
$GPRMC,083752.524,A,5952.068,N,01737.743,E,019.4,330.4,300420,000.0,W*78
$GPGGA,083753.524,5952.073,N,01737.740,E,1,12,1.0,0.0,M,0.0,M,,*69
$GPGSA,A,3,01,02,03,04,05,06,07,08,09,10,11,12,1.0,1.0,1.0*30
$GPRMC,083753.524,A,5952.073,N,01737.740,E,019.4,330.4,300420,000.0,W*70
$GPGGA,083754.524,5952.078,N,01737.737,E,1,12,1.0,0.0,M,0.0,M,,*65
$GPGSA,A,3,01,02,03,04,05,06,07,08,09,10,11,12,1.0,1.0,1.0*30
$GPRMC,083754.524,A,5952.078,N,01737.737,E,019.4,330.4,300420,000.0,W*7C
$GPGGA,083755.524,5952.084,N,01737.734,E,1,12,1.0,0.0,M,0.0,M,,*64
$GPGSA,A,3,01,02,03,04,05,06,07,08,09,10,11,12,1.0,1.0,1.0*30
$GPRMC,083755.524,A,5952.084,N,01737.734,E,019.4,330.4,300420,000.0,W*7D
$GPGGA,083756.524,5952.089,N,01737.731,E,1,12,1.0,0.0,M,0.0,M,,*6F
$GPGSA,A,3,01,02,03,04,05,06,07,08,09,10,11,12,1.0,1.0,1.0*30
$GPRMC,083756.524,A,5952.089,N,01737.731,E,019.4,330.4,300420,000.0,W*76
$GPGGA,083757.524,5952.094,N,01737.728,E,1,12,1.0,0.0,M,0.0,M,,*6A
$GPGSA,A,3,01,02,03,04,05,06,07,08,09,10,11,12,1.0,1.0,1.0*30
$GPRMC,083757.524,A,5952.094,N,01737.728,E,019.4,330.4,300420,000.0,W*73
$GPGGA,083758.524,5952.099,N,01737.725,E,1,12,1.0,0.0,M,0.0,M,,*65
$GPGSA,A,3,01,02,03,04,05,06,07,08,09,10,11,12,1.0,1.0,1.0*30
$GPRMC,083758.524,A,5952.099,N,01737.725,E,019.4,330.4,300420,000.0,W*7C
$GPGGA,083759.524,5952.104,N,01737.722,E,1,12,1.0,0.0,M,0.0,M,,*66
$GPGSA,A,3,01,02,03,04,05,06,07,08,09,10,11,12,1.0,1.0,1.0*30
$GPRMC,083759.524,A,5952.104,N,01737.722,E,019.4,330.4,300420,000.0,W*7F
$GPGGA,083800.524,5952.110,N,01737.719,E,1,12,1.0,0.0,M,0.0,M,,*68
$GPGSA,A,3,01,02,03,04,05,06,07,08,09,10,11,12,1.0,1.0,1.0*30
$GPRMC,083800.524,A,5952.110,N,01737.719,E,019.4,330.4,300420,000.0,W*71
$GPGGA,083801.524,5952.115,N,01737.716,E,1,12,1.0,0.0,M,0.0,M,,*63
$GPGSA,A,3,01,02,03,04,05,06,07,08,09,10,11,12,1.0,1.0,1.0*30
$GPRMC,083801.524,A,5952.115,N,01737.716,E,019.4,330.4,300420,000.0,W*7A
$GPGGA,083802.524,5952.120,N,01737.713,E,1,12,1.0,0.0,M,0.0,M,,*63
$GPGSA,A,3,01,02,03,04,05,06,07,08,09,10,11,12,1.0,1.0,1.0*30
$GPRMC,083802.524,A,5952.120,N,01737.713,E,019.4,330.4,300420,000.0,W*7A
$GPGGA,083803.524,5952.125,N,01737.710,E,1,12,1.0,0.0,M,0.0,M,,*64
$GPGSA,A,3,01,02,03,04,05,06,07,08,09,10,11,12,1.0,1.0,1.0*30
$GPRMC,083803.524,A,5952.125,N,01737.710,E,019.4,330.4,300420,000.0,W*7D
$GPGGA,083804.524,5952.130,N,01737.707,E,1,12,1.0,0.0,M,0.0,M,,*61
$GPGSA,A,3,01,02,03,04,05,06,07,08,09,10,11,12,1.0,1.0,1.0*30
$GPRMC,083804.524,A,5952.130,N,01737.707,E,019.4,330.4,300420,000.0,W*78
$GPGGA,083805.524,5952.135,N,01737.704,E,1,12,1.0,0.0,M,0.0,M,,*66
$GPGSA,A,3,01,02,03,04,05,06,07,08,09,10,11,12,1.0,1.0,1.0*30
$GPRMC,083805.524,A,5952.135,N,01737.704,E,019.4,330.4,300420,000.0,W*7F
$GPGGA,083806.524,5952.141,N,01737.701,E,1,12,1.0,0.0,M,0.0,M,,*63
$GPGSA,A,3,01,02,03,04,05,06,07,08,09,10,11,12,1.0,1.0,1.0*30
$GPRMC,083806.524,A,5952.141,N,01737.701,E,019.4,330.4,300420,000.0,W*7A
$GPGGA,083807.524,5952.146,N,01737.698,E,1,12,1.0,0.0,M,0.0,M,,*64
$GPGSA,A,3,01,02,03,04,05,06,07,08,09,10,11,12,1.0,1.0,1.0*30
$GPRMC,083807.524,A,5952.146,N,01737.698,E,019.4,330.4,300420,000.0,W*7D
$GPGGA,083808.524,5952.151,N,01737.695,E,1,12,1.0,0.0,M,0.0,M,,*60
$GPGSA,A,3,01,02,03,04,05,06,07,08,09,10,11,12,1.0,1.0,1.0*30
$GPRMC,083808.524,A,5952.151,N,01737.695,E,019.4,330.4,300420,000.0,W*79
$GPGGA,083809.524,5952.156,N,01737.693,E,1,12,1.0,0.0,M,0.0,M,,*60
$GPGSA,A,3,01,02,03,04,05,06,07,08,09,10,11,12,1.0,1.0,1.0*30
$GPRMC,083809.524,A,5952.156,N,01737.693,E,019.4,330.4,300420,000.0,W*79
$GPGGA,083810.524,5952.161,N,01737.690,E,1,12,1.0,0.0,M,0.0,M,,*6F
$GPGSA,A,3,01,02,03,04,05,06,07,08,09,10,11,12,1.0,1.0,1.0*30
$GPRMC,083810.524,A,5952.161,N,01737.690,E,019.4,330.4,300420,000.0,W*76
$GPGGA,083811.524,5952.167,N,01737.687,E,1,12,1.0,0.0,M,0.0,M,,*6E
$GPGSA,A,3,01,02,03,04,05,06,07,08,09,10,11,12,1.0,1.0,1.0*30
$GPRMC,083811.524,A,5952.167,N,01737.687,E,019.4,330.4,300420,000.0,W*77
$GPGGA,083812.524,5952.172,N,01737.684,E,1,12,1.0,0.0,M,0.0,M,,*6A
$GPGSA,A,3,01,02,03,04,05,06,07,08,09,10,11,12,1.0,1.0,1.0*30
$GPRMC,083812.524,A,5952.172,N,01737.684,E,019.4,330.4,300420,000.0,W*73
$GPGGA,083813.524,5952.177,N,01737.681,E,1,12,1.0,0.0,M,0.0,M,,*6B
$GPGSA,A,3,01,02,03,04,05,06,07,08,09,10,11,12,1.0,1.0,1.0*30
$GPRMC,083813.524,A,5952.177,N,01737.681,E,019.4,328.0,300420,000.0,W*7F
$GPGGA,083814.524,5952.182,N,01737.677,E,1,12,1.0,0.0,M,0.0,M,,*6F
$GPGSA,A,3,01,02,03,04,05,06,07,08,09,10,11,12,1.0,1.0,1.0*30
$GPRMC,083814.524,A,5952.182,N,01737.677,E,019.4,328.0,300420,000.0,W*7B
$GPGGA,083815.524,5952.187,N,01737.674,E,1,12,1.0,0.0,M,0.0,M,,*68
$GPGSA,A,3,01,02,03,04,05,06,07,08,09,10,11,12,1.0,1.0,1.0*30
$GPRMC,083815.524,A,5952.187,N,01737.674,E,019.4,328.0,300420,000.0,W*7C
$GPGGA,083816.524,5952.192,N,01737.671,E,1,12,1.0,0.0,M,0.0,M,,*6A
$GPGSA,A,3,01,02,03,04,05,06,07,08,09,10,11,12,1.0,1.0,1.0*30
$GPRMC,083816.524,A,5952.192,N,01737.671,E,019.4,328.0,300420,000.0,W*7E
$GPGGA,083817.524,5952.198,N,01737.668,E,1,12,1.0,0.0,M,0.0,M,,*69
$GPGSA,A,3,01,02,03,04,05,06,07,08,09,10,11,12,1.0,1.0,1.0*30
$GPRMC,083817.524,A,5952.198,N,01737.668,E,019.4,328.0,300420,000.0,W*7D
$GPGGA,083818.524,5952.203,N,01737.664,E,1,12,1.0,0.0,M,0.0,M,,*6B
$GPGSA,A,3,01,02,03,04,05,06,07,08,09,10,11,12,1.0,1.0,1.0*30
$GPRMC,083818.524,A,5952.203,N,01737.664,E,019.4,328.0,300420,000.0,W*7F
$GPGGA,083819.524,5952.208,N,01737.661,E,1,12,1.0,0.0,M,0.0,M,,*64
$GPGSA,A,3,01,02,03,04,05,06,07,08,09,10,11,12,1.0,1.0,1.0*30
$GPRMC,083819.524,A,5952.208,N,01737.661,E,019.4,328.0,300420,000.0,W*70
$GPGGA,083820.524,5952.213,N,01737.658,E,1,12,1.0,0.0,M,0.0,M,,*6E
$GPGSA,A,3,01,02,03,04,05,06,07,08,09,10,11,12,1.0,1.0,1.0*30
$GPRMC,083820.524,A,5952.213,N,01737.658,E,019.4,328.0,300420,000.0,W*7A
$GPGGA,083821.524,5952.218,N,01737.655,E,1,12,1.0,0.0,M,0.0,M,,*69
$GPGSA,A,3,01,02,03,04,05,06,07,08,09,10,11,12,1.0,1.0,1.0*30
$GPRMC,083821.524,A,5952.218,N,01737.655,E,019.4,328.0,300420,000.0,W*7D
$GPGGA,083822.524,5952.223,N,01737.652,E,1,12,1.0,0.0,M,0.0,M,,*65
$GPGSA,A,3,01,02,03,04,05,06,07,08,09,10,11,12,1.0,1.0,1.0*30
$GPRMC,083822.524,A,5952.223,N,01737.652,E,019.4,328.0,300420,000.0,W*71
$GPGGA,083823.524,5952.228,N,01737.648,E,1,12,1.0,0.0,M,0.0,M,,*64
$GPGSA,A,3,01,02,03,04,05,06,07,08,09,10,11,12,1.0,1.0,1.0*30
$GPRMC,083823.524,A,5952.228,N,01737.648,E,019.4,328.0,300420,000.0,W*70
$GPGGA,083824.524,5952.234,N,01737.645,E,1,12,1.0,0.0,M,0.0,M,,*63
$GPGSA,A,3,01,02,03,04,05,06,07,08,09,10,11,12,1.0,1.0,1.0*30
$GPRMC,083824.524,A,5952.234,N,01737.645,E,019.4,328.0,300420,000.0,W*77
$GPGGA,083825.524,5952.239,N,01737.642,E,1,12,1.0,0.0,M,0.0,M,,*68
$GPGSA,A,3,01,02,03,04,05,06,07,08,09,10,11,12,1.0,1.0,1.0*30
$GPRMC,083825.524,A,5952.239,N,01737.642,E,019.4,330.1,300420,000.0,W*74
$GPGGA,083826.524,5952.244,N,01737.639,E,1,12,1.0,0.0,M,0.0,M,,*6D
$GPGSA,A,3,01,02,03,04,05,06,07,08,09,10,11,12,1.0,1.0,1.0*30
$GPRMC,083826.524,A,5952.244,N,01737.639,E,019.4,330.1,300420,000.0,W*71
$GPGGA,083827.524,5952.249,N,01737.636,E,1,12,1.0,0.0,M,0.0,M,,*6E
$GPGSA,A,3,01,02,03,04,05,06,07,08,09,10,11,12,1.0,1.0,1.0*30
$GPRMC,083827.524,A,5952.249,N,01737.636,E,019.4,330.1,300420,000.0,W*72
$GPGGA,083828.524,5952.254,N,01737.633,E,1,12,1.0,0.0,M,0.0,M,,*68
$GPGSA,A,3,01,02,03,04,05,06,07,08,09,10,11,12,1.0,1.0,1.0*30
$GPRMC,083828.524,A,5952.254,N,01737.633,E,019.4,330.1,300420,000.0,W*74
$GPGGA,083829.524,5952.259,N,01737.630,E,1,12,1.0,0.0,M,0.0,M,,*67
$GPGSA,A,3,01,02,03,04,05,06,07,08,09,10,11,12,1.0,1.0,1.0*30
$GPRMC,083829.524,A,5952.259,N,01737.630,E,019.4,330.1,300420,000.0,W*7B
$GPGGA,083830.524,5952.265,N,01737.627,E,1,12,1.0,0.0,M,0.0,M,,*66
$GPGSA,A,3,01,02,03,04,05,06,07,08,09,10,11,12,1.0,1.0,1.0*30
$GPRMC,083830.524,A,5952.265,N,01737.627,E,019.4,330.1,300420,000.0,W*7A
$GPGGA,083831.524,5952.270,N,01737.624,E,1,12,1.0,0.0,M,0.0,M,,*60
$GPGSA,A,3,01,02,03,04,05,06,07,08,09,10,11,12,1.0,1.0,1.0*30
$GPRMC,083831.524,A,5952.270,N,01737.624,E,019.4,330.1,300420,000.0,W*7C
$GPGGA,083832.524,5952.275,N,01737.621,E,1,12,1.0,0.0,M,0.0,M,,*63
$GPGSA,A,3,01,02,03,04,05,06,07,08,09,10,11,12,1.0,1.0,1.0*30
$GPRMC,083832.524,A,5952.275,N,01737.621,E,019.4,330.1,300420,000.0,W*7F
$GPGGA,083833.524,5952.280,N,01737.618,E,1,12,1.0,0.0,M,0.0,M,,*62
$GPGSA,A,3,01,02,03,04,05,06,07,08,09,10,11,12,1.0,1.0,1.0*30
$GPRMC,083833.524,A,5952.280,N,01737.618,E,019.4,330.1,300420,000.0,W*7E
$GPGGA,083834.524,5952.285,N,01737.615,E,1,12,1.0,0.0,M,0.0,M,,*6D
$GPGSA,A,3,01,02,03,04,05,06,07,08,09,10,11,12,1.0,1.0,1.0*30
$GPRMC,083834.524,A,5952.285,N,01737.615,E,019.4,330.1,300420,000.0,W*71
$GPGGA,083835.524,5952.291,N,01737.612,E,1,12,1.0,0.0,M,0.0,M,,*6E
$GPGSA,A,3,01,02,03,04,05,06,07,08,09,10,11,12,1.0,1.0,1.0*30
$GPRMC,083835.524,A,5952.291,N,01737.612,E,019.4,330.1,300420,000.0,W*72
$GPGGA,083836.524,5952.296,N,01737.609,E,1,12,1.0,0.0,M,0.0,M,,*60
$GPGSA,A,3,01,02,03,04,05,06,07,08,09,10,11,12,1.0,1.0,1.0*30
$GPRMC,083836.524,A,5952.296,N,01737.609,E,019.4,330.1,300420,000.0,W*7C
$GPGGA,083837.524,5952.301,N,01737.606,E,1,12,1.0,0.0,M,0.0,M,,*61
$GPGSA,A,3,01,02,03,04,05,06,07,08,09,10,11,12,1.0,1.0,1.0*30
$GPRMC,083837.524,A,5952.301,N,01737.606,E,019.4,330.1,300420,000.0,W*7D
$GPGGA,083838.524,5952.306,N,01737.603,E,1,12,1.0,0.0,M,0.0,M,,*6C
$GPGSA,A,3,01,02,03,04,05,06,07,08,09,10,11,12,1.0,1.0,1.0*30
$GPRMC,083838.524,A,5952.306,N,01737.603,E,019.4,330.1,300420,000.0,W*70
$GPGGA,083839.524,5952.311,N,01737.600,E,1,12,1.0,0.0,M,0.0,M,,*68
$GPGSA,A,3,01,02,03,04,05,06,07,08,09,10,11,12,1.0,1.0,1.0*30
$GPRMC,083839.524,A,5952.311,N,01737.600,E,019.4,330.1,300420,000.0,W*74
$GPGGA,083840.524,5952.316,N,01737.597,E,1,12,1.0,0.0,M,0.0,M,,*6C
$GPGSA,A,3,01,02,03,04,05,06,07,08,09,10,11,12,1.0,1.0,1.0*30
$GPRMC,083840.524,A,5952.316,N,01737.597,E,019.4,330.1,300420,000.0,W*70
$GPGGA,083841.524,5952.322,N,01737.594,E,1,12,1.0,0.0,M,0.0,M,,*69
$GPGSA,A,3,01,02,03,04,05,06,07,08,09,10,11,12,1.0,1.0,1.0*30
$GPRMC,083841.524,A,5952.322,N,01737.594,E,019.4,330.1,300420,000.0,W*75
$GPGGA,083842.524,5952.327,N,01737.591,E,1,12,1.0,0.0,M,0.0,M,,*6A
$GPGSA,A,3,01,02,03,04,05,06,07,08,09,10,11,12,1.0,1.0,1.0*30
$GPRMC,083842.524,A,5952.327,N,01737.591,E,019.4,330.1,300420,000.0,W*76
$GPGGA,083843.524,5952.332,N,01737.588,E,1,12,1.0,0.0,M,0.0,M,,*67
$GPGSA,A,3,01,02,03,04,05,06,07,08,09,10,11,12,1.0,1.0,1.0*30
$GPRMC,083843.524,A,5952.332,N,01737.588,E,019.4,330.1,300420,000.0,W*7B
$GPGGA,083844.524,5952.337,N,01737.585,E,1,12,1.0,0.0,M,0.0,M,,*68
$GPGSA,A,3,01,02,03,04,05,06,07,08,09,10,11,12,1.0,1.0,1.0*30
$GPRMC,083844.524,A,5952.337,N,01737.585,E,019.4,330.1,300420,000.0,W*74
$GPGGA,083845.524,5952.342,N,01737.582,E,1,12,1.0,0.0,M,0.0,M,,*6C
$GPGSA,A,3,01,02,03,04,05,06,07,08,09,10,11,12,1.0,1.0,1.0*30
$GPRMC,083845.524,A,5952.342,N,01737.582,E,019.4,330.1,300420,000.0,W*70
$GPGGA,083846.524,5952.348,N,01737.579,E,1,12,1.0,0.0,M,0.0,M,,*61
$GPGSA,A,3,01,02,03,04,05,06,07,08,09,10,11,12,1.0,1.0,1.0*30
$GPRMC,083846.524,A,5952.348,N,01737.579,E,019.4,331.4,300420,000.0,W*79
$GPGGA,083847.524,5952.353,N,01737.576,E,1,12,1.0,0.0,M,0.0,M,,*65
$GPGSA,A,3,01,02,03,04,05,06,07,08,09,10,11,12,1.0,1.0,1.0*30
$GPRMC,083847.524,A,5952.353,N,01737.576,E,019.4,073.1,300420,000.0,W*7D
$GPGGA,083848.524,5952.356,N,01737.585,E,1,12,1.0,0.0,M,0.0,M,,*63
$GPGSA,A,3,01,02,03,04,05,06,07,08,09,10,11,12,1.0,1.0,1.0*30
$GPRMC,083848.524,A,5952.356,N,01737.585,E,019.4,090.0,300420,000.0,W*77
$GPGGA,083849.524,5952.355,N,01737.596,E,1,12,1.0,0.0,M,0.0,M,,*63
$GPGSA,A,3,01,02,03,04,05,06,07,08,09,10,11,12,1.0,1.0,1.0*30
$GPRMC,083849.524,A,5952.355,N,01737.596,E,019.4,090.0,300420,000.0,W*77
$GPGGA,083850.524,5952.355,N,01737.607,E,1,12,1.0,0.0,M,0.0,M,,*60
$GPGSA,A,3,01,02,03,04,05,06,07,08,09,10,11,12,1.0,1.0,1.0*30
$GPRMC,083850.524,A,5952.355,N,01737.607,E,019.4,090.0,300420,000.0,W*74
